{
  "type": "FeatureCollection",
  "features": [
    {
      "type": "Feature",
      "properties": {
        "name": "de Tre les Eaux",
        "GLIMS_ID": "G006862E46029N",
        "massif": "Aiguilles Rouges",
        "year": 2003
      },
      "geometry": {
        "type": "Point",
        "coordinates": [
          6.86168,
          46.0291
        ]
      }
    },
    {
      "type": "Feature",
      "properties": {
        "name": "de Beugeant",
        "GLIMS_ID": "G006887E45995N",
        "massif": "Aiguilles Rouges",
        "year": 2003
      },
      "geometry": {
        "type": "Point",
        "coordinates": [
          6.88681,
          45.9953
        ]
      }
    },
    {
      "type": "Feature",
      "properties": {
        "name": "du Belvedere",
        "GLIMS_ID": "G006877E45985N",
        "massif": "Aiguilles Rouges",
        "year": 2003
      },
      "geometry": {
        "type": "Point",
        "coordinates": [
          6.87682,
          45.9851
        ]
      }
    },
    {
      "type": "Feature",
      "properties": {
        "name": "Adams Reilly",
        "GLIMS_ID": "G006990E45969N",
        "massif": "Mont Blanc",
        "year": 2003
      },
      "geometry": {
        "type": "Point",
        "coordinates": [
          6.98953,
          45.9687
        ]
      }
    },
    {
      "type": "Feature",
      "properties": {
        "name": "des Grands Montets",
        "GLIMS_ID": "G006955E45946N",
        "massif": "Mont Blanc",
        "year": 2003
      },
      "geometry": {
        "type": "Point",
        "coordinates": [
          6.95524,
          45.9462
        ]
      }
    },
    {
      "type": "Feature",
      "properties": {
        "name": "de la Pendant",
        "GLIMS_ID": "G006952E45951N",
        "massif": "Mont Blanc",
        "year": 2003
      },
      "geometry": {
        "type": "Point",
        "coordinates": [
          6.95169,
          45.9514
        ]
      }
    },
    {
      "type": "Feature",
      "properties": {
        "name": "de Lognan",
        "GLIMS_ID": "G006957E45955N",
        "massif": "Mont Blanc",
        "year": 2003
      },
      "geometry": {
        "type": "Point",
        "coordinates": [
          6.95676,
          45.9549
        ]
      }
    },
    {
      "type": "Feature",
      "properties": {
        "name": "des Drus",
        "GLIMS_ID": "G006947E45933N",
        "massif": "Mont Blanc",
        "year": 2003
      },
      "geometry": {
        "type": "Point",
        "coordinates": [
          6.9466,
          45.9328
        ]
      }
    },
    {
      "type": "Feature",
      "properties": {
        "name": "du Moine",
        "GLIMS_ID": "G006961E45912N",
        "massif": "Mont Blanc",
        "year": 2003
      },
      "geometry": {
        "type": "Point",
        "coordinates": [
          6.96129,
          45.9123
        ]
      }
    },
    {
      "type": "Feature",
      "properties": {
        "name": "de Trelaporte",
        "GLIMS_ID": "G006928E45905N",
        "massif": "Mont Blanc",
        "year": 2003
      },
      "geometry": {
        "type": "Point",
        "coordinates": [
          6.92767,
          45.9054
        ]
      }
    },
    {
      "type": "Feature",
      "properties": {
        "name": "du Plan",
        "GLIMS_ID": "G006906E45895N",
        "massif": "Mont Blanc",
        "year": 2003
      },
      "geometry": {
        "type": "Point",
        "coordinates": [
          6.90606,
          45.8945
        ]
      }
    },
    {
      "type": "Feature",
      "properties": {
        "name": "de Blaitiere",
        "GLIMS_ID": "G006901E45901N",
        "massif": "Mont Blanc",
        "year": 2003
      },
      "geometry": {
        "type": "Point",
        "coordinates": [
          6.90117,
          45.9015
        ]
      }
    },
    {
      "type": "Feature",
      "properties": {
        "name": "du Telepherique",
        "GLIMS_ID": "G006880E45886N",
        "massif": "Mont Blanc",
        "year": 2003
      },
      "geometry": {
        "type": "Point",
        "coordinates": [
          6.87979,
          45.8858
        ]
      }
    },
    {
      "type": "Feature",
      "properties": {
        "name": "Bossons",
        "GLIMS_ID": "G006865E45868N",
        "massif": "Mont Blanc",
        "year": 2003
      },
      "geometry": {
        "type": "Point",
        "coordinates": [
          6.86489,
          45.8677
        ]
      }
    },
    {
      "type": "Feature",
      "properties": {
        "name": "Taconnaz",
        "GLIMS_ID": "G006844E45863N",
        "massif": "Mont Blanc",
        "year": 2003
      },
      "geometry": {
        "type": "Point",
        "coordinates": [
          6.84404,
          45.8634
        ]
      }
    },
    {
      "type": "Feature",
      "properties": {
        "name": "de Bionnassay",
        "GLIMS_ID": "G006811E45849N",
        "massif": "Mont Blanc",
        "year": 2003
      },
      "geometry": {
        "type": "Point",
        "coordinates": [
          6.81094,
          45.8492
        ]
      }
    },
    {
      "type": "Feature",
      "properties": {
        "name": "de la Griaz",
        "GLIMS_ID": "G006823E45859N",
        "massif": "Mont Blanc",
        "year": 2003
      },
      "geometry": {
        "type": "Point",
        "coordinates": [
          6.82318,
          45.8589
        ]
      }
    },
    {
      "type": "Feature",
      "properties": {
        "name": "de Tete Rousse",
        "GLIMS_ID": "G006819E45856N",
        "massif": "Mont Blanc",
        "year": 2003
      },
      "geometry": {
        "type": "Point",
        "coordinates": [
          6.81928,
          45.8563
        ]
      }
    },
    {
      "type": "Feature",
      "properties": {
        "name": "du Miage 1",
        "GLIMS_ID": "G006785E45822N",
        "massif": "Mont Blanc",
        "year": 2003
      },
      "geometry": {
        "type": "Point",
        "coordinates": [
          6.7847,
          45.8225
        ]
      }
    },
    {
      "type": "Feature",
      "properties": {
        "name": "du Miage 2",
        "GLIMS_ID": "G006792E45817N",
        "massif": "Mont Blanc",
        "year": 2003
      },
      "geometry": {
        "type": "Point",
        "coordinates": [
          6.79162,
          45.8171
        ]
      }
    },
    {
      "type": "Feature",
      "properties": {
        "name": "du Miage 3",
        "GLIMS_ID": "G006799E45819N",
        "massif": "Mont Blanc",
        "year": 2003
      },
      "geometry": {
        "type": "Point",
        "coordinates": [
          6.79932,
          45.8194
        ]
      }
    },
    {
      "type": "Feature",
      "properties": {
        "name": "de Covagnet",
        "GLIMS_ID": "G006783E45817N",
        "massif": "Mont Blanc",
        "year": 2003
      },
      "geometry": {
        "type": "Point",
        "coordinates": [
          6.78311,
          45.8173
        ]
      }
    },
    {
      "type": "Feature",
      "properties": {
        "name": "de la Berangere",
        "GLIMS_ID": "G006776E45799N",
        "massif": "Mont Blanc",
        "year": 2003
      },
      "geometry": {
        "type": "Point",
        "coordinates": [
          6.77575,
          45.7988
        ]
      }
    },
    {
      "type": "Feature",
      "properties": {
        "name": "de la Petite Aiguille des Glaciers 1",
        "GLIMS_ID": "G006804E45769N",
        "massif": "Mont Blanc",
        "year": 2003
      },
      "geometry": {
        "type": "Point",
        "coordinates": [
          6.80402,
          45.7691
        ]
      }
    },
    {
      "type": "Feature",
      "properties": {
        "name": "des Glaciers",
        "GLIMS_ID": "G006794E45769N",
        "massif": "Mont Blanc",
        "year": 2003
      },
      "geometry": {
        "type": "Point",
        "coordinates": [
          6.79392,
          45.7685
        ]
      }
    },
    {
      "type": "Feature",
      "properties": {
        "name": "d'Enclave",
        "GLIMS_ID": "G006753E45760N",
        "massif": "Mont Blanc",
        "year": 2003
      },
      "geometry": {
        "type": "Point",
        "coordinates": [
          6.75315,
          45.7602
        ]
      }
    },
    {
      "type": "Feature",
      "properties": {
        "name": "des Lanchettes",
        "GLIMS_ID": "G006764E45765N",
        "massif": "Mont Blanc",
        "year": 2003
      },
      "geometry": {
        "type": "Point",
        "coordinates": [
          6.76355,
          45.7647
        ]
      }
    },
    {
      "type": "Feature",
      "properties": {
        "name": "du Mont Tondu",
        "GLIMS_ID": "G006762E45772N",
        "massif": "Mont Blanc",
        "year": 2003
      },
      "geometry": {
        "type": "Point",
        "coordinates": [
          6.76178,
          45.7719
        ]
      }
    },
    {
      "type": "Feature",
      "properties": {
        "name": "du Col des Chasseurs",
        "GLIMS_ID": "G006755E45773N",
        "massif": "Mont Blanc",
        "year": 2003
      },
      "geometry": {
        "type": "Point",
        "coordinates": [
          6.75524,
          45.7732
        ]
      }
    },
    {
      "type": "Feature",
      "properties": {
        "name": "du Grand",
        "GLIMS_ID": "G006985E45642N",
        "massif": "Haute Vall\u00e9e de l'Is\u00e8re",
        "year": 2003
      },
      "geometry": {
        "type": "Point",
        "coordinates": [
          6.985,
          45.6419
        ]
      }
    },
    {
      "type": "Feature",
      "properties": {
        "name": "de l'Invernet",
        "GLIMS_ID": "G006986E45634N",
        "massif": "Haute Vall\u00e9e de l'Is\u00e8re",
        "year": 2003
      },
      "geometry": {
        "type": "Point",
        "coordinates": [
          6.98624,
          45.6338
        ]
      }
    },
    {
      "type": "Feature",
      "properties": {
        "name": "d'Archeboc",
        "GLIMS_ID": "G006985E45580N",
        "massif": "Haute Vall\u00e9e de l'Is\u00e8re",
        "year": 2003
      },
      "geometry": {
        "type": "Point",
        "coordinates": [
          6.98459,
          45.5798
        ]
      }
    },
    {
      "type": "Feature",
      "properties": {
        "name": "de Bellecote 1",
        "GLIMS_ID": "G006770E45497N",
        "massif": "Vanoise",
        "year": 2003
      },
      "geometry": {
        "type": "Point",
        "coordinates": [
          6.77045,
          45.4972
        ]
      }
    },
    {
      "type": "Feature",
      "properties": {
        "name": "de Bellecote 2",
        "GLIMS_ID": "G006774E45495N",
        "massif": "Vanoise",
        "year": 2003
      },
      "geometry": {
        "type": "Point",
        "coordinates": [
          6.7745,
          45.4952
        ]
      }
    },
    {
      "type": "Feature",
      "properties": {
        "name": "de la Chiaupe",
        "GLIMS_ID": "G006776E45488N",
        "massif": "Vanoise",
        "year": 2003
      },
      "geometry": {
        "type": "Point",
        "coordinates": [
          6.77626,
          45.4882
        ]
      }
    },
    {
      "type": "Feature",
      "properties": {
        "name": "du Cul du Nant",
        "GLIMS_ID": "G006784E45487N",
        "massif": "Vanoise",
        "year": 2003
      },
      "geometry": {
        "type": "Point",
        "coordinates": [
          6.78425,
          45.4866
        ]
      }
    },
    {
      "type": "Feature",
      "properties": {
        "name": "Gros Glacier 1",
        "GLIMS_ID": "G006791E45494N",
        "massif": "Vanoise",
        "year": 2003
      },
      "geometry": {
        "type": "Point",
        "coordinates": [
          6.7907,
          45.4939
        ]
      }
    },
    {
      "type": "Feature",
      "properties": {
        "name": "des Picheres 1",
        "GLIMS_ID": "G006803E45493N",
        "massif": "Vanoise",
        "year": 2003
      },
      "geometry": {
        "type": "Point",
        "coordinates": [
          6.80333,
          45.4934
        ]
      }
    },
    {
      "type": "Feature",
      "properties": {
        "name": "Inferieur des Balmes",
        "GLIMS_ID": "G006972E45549N",
        "massif": "Haute Vall\u00e9e de l'Is\u00e8re",
        "year": 2003
      },
      "geometry": {
        "type": "Point",
        "coordinates": [
          6.97222,
          45.5492
        ]
      }
    },
    {
      "type": "Feature",
      "properties": {
        "name": "Superieur des Balmes",
        "GLIMS_ID": "G006985E45538N",
        "massif": "Haute Vall\u00e9e de l'Is\u00e8re",
        "year": 2003
      },
      "geometry": {
        "type": "Point",
        "coordinates": [
          6.98494,
          45.5377
        ]
      }
    },
    {
      "type": "Feature",
      "properties": {
        "name": "de la Sassiere",
        "GLIMS_ID": "G006988E45515N",
        "massif": "Haute Vall\u00e9e de l'Is\u00e8re",
        "year": 2003
      },
      "geometry": {
        "type": "Point",
        "coordinates": [
          6.98847,
          45.5152
        ]
      }
    },
    {
      "type": "Feature",
      "properties": {
        "name": "du Fond 2",
        "GLIMS_ID": "G006993E45521N",
        "massif": "Haute Vall\u00e9e de l'Is\u00e8re",
        "year": 2003
      },
      "geometry": {
        "type": "Point",
        "coordinates": [
          6.99288,
          45.5206
        ]
      }
    },
    {
      "type": "Feature",
      "properties": {
        "name": "du Varet",
        "GLIMS_ID": "G006849E45556N",
        "massif": "Haute Vall\u00e9e de l'Is\u00e8re",
        "year": 2003
      },
      "geometry": {
        "type": "Point",
        "coordinates": [
          6.84944,
          45.5563
        ]
      }
    },
    {
      "type": "Feature",
      "properties": {
        "name": "de Turia",
        "GLIMS_ID": "G006865E45542N",
        "massif": "Haute Vall\u00e9e de l'Is\u00e8re",
        "year": 2003
      },
      "geometry": {
        "type": "Point",
        "coordinates": [
          6.86509,
          45.542
        ]
      }
    },
    {
      "type": "Feature",
      "properties": {
        "name": "du Geay",
        "GLIMS_ID": "G006850E45532N",
        "massif": "Haute Vall\u00e9e de l'Is\u00e8re",
        "year": 2003
      },
      "geometry": {
        "type": "Point",
        "coordinates": [
          6.84987,
          45.5323
        ]
      }
    },
    {
      "type": "Feature",
      "properties": {
        "name": "Nord de la Gurraz",
        "GLIMS_ID": "G006872E45535N",
        "massif": "Haute Vall\u00e9e de l'Is\u00e8re",
        "year": 2003
      },
      "geometry": {
        "type": "Point",
        "coordinates": [
          6.87229,
          45.5354
        ]
      }
    },
    {
      "type": "Feature",
      "properties": {
        "name": "Sud de la Gurraz",
        "GLIMS_ID": "G006874E45531N",
        "massif": "Haute Vall\u00e9e de l'Is\u00e8re",
        "year": 2003
      },
      "geometry": {
        "type": "Point",
        "coordinates": [
          6.87363,
          45.5307
        ]
      }
    },
    {
      "type": "Feature",
      "properties": {
        "name": "du Pretre",
        "GLIMS_ID": "G006864E45518N",
        "massif": "Haute Vall\u00e9e de l'Is\u00e8re",
        "year": 2003
      },
      "geometry": {
        "type": "Point",
        "coordinates": [
          6.86364,
          45.5179
        ]
      }
    },
    {
      "type": "Feature",
      "properties": {
        "name": "de Savinaz",
        "GLIMS_ID": "G006880E45521N",
        "massif": "Haute Vall\u00e9e de l'Is\u00e8re",
        "year": 2003
      },
      "geometry": {
        "type": "Point",
        "coordinates": [
          6.87952,
          45.521
        ]
      }
    },
    {
      "type": "Feature",
      "properties": {
        "name": "de l'Inverneau",
        "GLIMS_ID": "G006888E45514N",
        "massif": "Haute Vall\u00e9e de l'Is\u00e8re",
        "year": 2003
      },
      "geometry": {
        "type": "Point",
        "coordinates": [
          6.88775,
          45.5145
        ]
      }
    },
    {
      "type": "Feature",
      "properties": {
        "name": "Suspendu 1",
        "GLIMS_ID": "G006870E45507N",
        "massif": "Haute Vall\u00e9e de l'Is\u00e8re",
        "year": 2003
      },
      "geometry": {
        "type": "Point",
        "coordinates": [
          6.86956,
          45.5068
        ]
      }
    },
    {
      "type": "Feature",
      "properties": {
        "name": "de Rhemes Golette",
        "GLIMS_ID": "G007045E45487N",
        "massif": "Haute Vall\u00e9e de l'Is\u00e8re",
        "year": 2003
      },
      "geometry": {
        "type": "Point",
        "coordinates": [
          7.04512,
          45.4873
        ]
      }
    },
    {
      "type": "Feature",
      "properties": {
        "name": "du Couart Dessus",
        "GLIMS_ID": "G007042E45475N",
        "massif": "Haute Vall\u00e9e de l'Is\u00e8re",
        "year": 2003
      },
      "geometry": {
        "type": "Point",
        "coordinates": [
          7.04227,
          45.4749
        ]
      }
    },
    {
      "type": "Feature",
      "properties": {
        "name": "de Bazel",
        "GLIMS_ID": "G007056E45469N",
        "massif": "Haute Vall\u00e9e de l'Is\u00e8re",
        "year": 2003
      },
      "geometry": {
        "type": "Point",
        "coordinates": [
          7.05643,
          45.4694
        ]
      }
    },
    {
      "type": "Feature",
      "properties": {
        "name": "de Calabre",
        "GLIMS_ID": "G007084E45470N",
        "massif": "Haute Vall\u00e9e de l'Is\u00e8re",
        "year": 2003
      },
      "geometry": {
        "type": "Point",
        "coordinates": [
          7.0839,
          45.47
        ]
      }
    },
    {
      "type": "Feature",
      "properties": {
        "name": "de la Galise 2",
        "GLIMS_ID": "G007095E45459N",
        "massif": "Haute Vall\u00e9e de l'Is\u00e8re",
        "year": 2003
      },
      "geometry": {
        "type": "Point",
        "coordinates": [
          7.09509,
          45.4593
        ]
      }
    },
    {
      "type": "Feature",
      "properties": {
        "name": "du Grand Vallon 1",
        "GLIMS_ID": "G007046E45436N",
        "massif": "Haute Vall\u00e9e de l'Is\u00e8re",
        "year": 2003
      },
      "geometry": {
        "type": "Point",
        "coordinates": [
          7.04592,
          45.4362
        ]
      }
    },
    {
      "type": "Feature",
      "properties": {
        "name": "du Col Pers",
        "GLIMS_ID": "G007059E45434N",
        "massif": "Haute Vall\u00e9e de l'Is\u00e8re",
        "year": 2003
      },
      "geometry": {
        "type": "Point",
        "coordinates": [
          7.05886,
          45.4339
        ]
      }
    },
    {
      "type": "Feature",
      "properties": {
        "name": "du Grand Pisaillas 1",
        "GLIMS_ID": "G007062E45426N",
        "massif": "Haute Maurienne",
        "year": 2003
      },
      "geometry": {
        "type": "Point",
        "coordinates": [
          7.06244,
          45.4265
        ]
      }
    },
    {
      "type": "Feature",
      "properties": {
        "name": "du Gros Caval",
        "GLIMS_ID": "G007083E45437N",
        "massif": "Haute Vall\u00e9e de l'Is\u00e8re",
        "year": 2003
      },
      "geometry": {
        "type": "Point",
        "coordinates": [
          7.08282,
          45.4367
        ]
      }
    },
    {
      "type": "Feature",
      "properties": {
        "name": "de l'Ouille Noire",
        "GLIMS_ID": "G007064E45406N",
        "massif": "Haute Maurienne",
        "year": 2003
      },
      "geometry": {
        "type": "Point",
        "coordinates": [
          7.06354,
          45.4059
        ]
      }
    },
    {
      "type": "Feature",
      "properties": {
        "name": "du Vallonnet 3",
        "GLIMS_ID": "G006755E45406N",
        "massif": "Vanoise",
        "year": 2003
      },
      "geometry": {
        "type": "Point",
        "coordinates": [
          6.75509,
          45.406
        ]
      }
    },
    {
      "type": "Feature",
      "properties": {
        "name": "de la Patinoire",
        "GLIMS_ID": "G006765E45407N",
        "massif": "Vanoise",
        "year": 2003
      },
      "geometry": {
        "type": "Point",
        "coordinates": [
          6.76523,
          45.4075
        ]
      }
    },
    {
      "type": "Feature",
      "properties": {
        "name": "de la Vuzelle 1",
        "GLIMS_ID": "G006759E45417N",
        "massif": "Vanoise",
        "year": 2003
      },
      "geometry": {
        "type": "Point",
        "coordinates": [
          6.7593,
          45.4171
        ]
      }
    },
    {
      "type": "Feature",
      "properties": {
        "name": "des Volnets",
        "GLIMS_ID": "G006763E45424N",
        "massif": "Vanoise",
        "year": 2003
      },
      "geometry": {
        "type": "Point",
        "coordinates": [
          6.76314,
          45.4239
        ]
      }
    },
    {
      "type": "Feature",
      "properties": {
        "name": "de Becca Motta",
        "GLIMS_ID": "G006754E45431N",
        "massif": "Vanoise",
        "year": 2003
      },
      "geometry": {
        "type": "Point",
        "coordinates": [
          6.7537,
          45.4315
        ]
      }
    },
    {
      "type": "Feature",
      "properties": {
        "name": "de la Roche du Tougne",
        "GLIMS_ID": "G006782E45419N",
        "massif": "Vanoise",
        "year": 2003
      },
      "geometry": {
        "type": "Point",
        "coordinates": [
          6.78209,
          45.4186
        ]
      }
    },
    {
      "type": "Feature",
      "properties": {
        "name": "Nord de la Gliere 2",
        "GLIMS_ID": "G006788E45418N",
        "massif": "Vanoise",
        "year": 2003
      },
      "geometry": {
        "type": "Point",
        "coordinates": [
          6.78811,
          45.4181
        ]
      }
    },
    {
      "type": "Feature",
      "properties": {
        "name": "Nord de la Gliere 1",
        "GLIMS_ID": "G006797E45418N",
        "massif": "Vanoise",
        "year": 2003
      },
      "geometry": {
        "type": "Point",
        "coordinates": [
          6.7969,
          45.418
        ]
      }
    },
    {
      "type": "Feature",
      "properties": {
        "name": "Sud de la Gliere",
        "GLIMS_ID": "G006790E45411N",
        "massif": "Vanoise",
        "year": 2003
      },
      "geometry": {
        "type": "Point",
        "coordinates": [
          6.78999,
          45.411
        ]
      }
    },
    {
      "type": "Feature",
      "properties": {
        "name": "de la Grande Casse",
        "GLIMS_ID": "G006803E45409N",
        "massif": "Vanoise",
        "year": 2003
      },
      "geometry": {
        "type": "Point",
        "coordinates": [
          6.80324,
          45.4091
        ]
      }
    },
    {
      "type": "Feature",
      "properties": {
        "name": "de Rosolin",
        "GLIMS_ID": "G006843E45417N",
        "massif": "Vanoise",
        "year": 2003
      },
      "geometry": {
        "type": "Point",
        "coordinates": [
          6.84309,
          45.4175
        ]
      }
    },
    {
      "type": "Feature",
      "properties": {
        "name": "de Premou",
        "GLIMS_ID": "G006862E45413N",
        "massif": "Vanoise",
        "year": 2003
      },
      "geometry": {
        "type": "Point",
        "coordinates": [
          6.86208,
          45.4135
        ]
      }
    },
    {
      "type": "Feature",
      "properties": {
        "name": "de Pramort ou de Rosolin Derriere",
        "GLIMS_ID": "G006858E45423N",
        "massif": "Vanoise",
        "year": 2003
      },
      "geometry": {
        "type": "Point",
        "coordinates": [
          6.85751,
          45.423
        ]
      }
    },
    {
      "type": "Feature",
      "properties": {
        "name": "Est de Pramecou (?)",
        "GLIMS_ID": "G006883E45435N",
        "massif": "Vanoise",
        "year": 2003
      },
      "geometry": {
        "type": "Point",
        "coordinates": [
          6.8828,
          45.4347
        ]
      }
    },
    {
      "type": "Feature",
      "properties": {
        "name": "de la Sana",
        "GLIMS_ID": "G006921E45382N",
        "massif": "Vanoise",
        "year": 2003
      },
      "geometry": {
        "type": "Point",
        "coordinates": [
          6.92092,
          45.3818
        ]
      }
    },
    {
      "type": "Feature",
      "properties": {
        "name": "du Rocher des Barmes de l'Ours (?)",
        "GLIMS_ID": "G006939E45386N",
        "massif": "Haute Vall\u00e9e de l'Is\u00e8re",
        "year": 2003
      },
      "geometry": {
        "type": "Point",
        "coordinates": [
          6.93911,
          45.3861
        ]
      }
    },
    {
      "type": "Feature",
      "properties": {
        "name": "des Barmes de l'Ours",
        "GLIMS_ID": "G006922E45391N",
        "massif": "Vanoise",
        "year": 2003
      },
      "geometry": {
        "type": "Point",
        "coordinates": [
          6.92238,
          45.3914
        ]
      }
    },
    {
      "type": "Feature",
      "properties": {
        "name": "de la Leisse",
        "GLIMS_ID": "G006910E45386N",
        "massif": "Vanoise",
        "year": 2003
      },
      "geometry": {
        "type": "Point",
        "coordinates": [
          6.91014,
          45.3861
        ]
      }
    },
    {
      "type": "Feature",
      "properties": {
        "name": "du Charbonnier",
        "GLIMS_ID": "G006893E45380N",
        "massif": "Vanoise",
        "year": 2003
      },
      "geometry": {
        "type": "Point",
        "coordinates": [
          6.89325,
          45.38
        ]
      }
    },
    {
      "type": "Feature",
      "properties": {
        "name": "du Vallonnet 1",
        "GLIMS_ID": "G006904E45335N",
        "massif": "Vanoise",
        "year": 2004
      },
      "geometry": {
        "type": "Point",
        "coordinates": [
          6.90355,
          45.3351
        ]
      }
    },
    {
      "type": "Feature",
      "properties": {
        "name": "des Broes",
        "GLIMS_ID": "G006910E45346N",
        "massif": "Vanoise",
        "year": 2003
      },
      "geometry": {
        "type": "Point",
        "coordinates": [
          6.90955,
          45.3462
        ]
      }
    },
    {
      "type": "Feature",
      "properties": {
        "name": "du Vallonbrun",
        "GLIMS_ID": "G006948E45337N",
        "massif": "Vanoise",
        "year": 2004
      },
      "geometry": {
        "type": "Point",
        "coordinates": [
          6.94831,
          45.3365
        ]
      }
    },
    {
      "type": "Feature",
      "properties": {
        "name": "du Gefret",
        "GLIMS_ID": "G006956E45344N",
        "massif": "Vanoise",
        "year": 2004
      },
      "geometry": {
        "type": "Point",
        "coordinates": [
          6.95574,
          45.3436
        ]
      }
    },
    {
      "type": "Feature",
      "properties": {
        "name": "des Lechours",
        "GLIMS_ID": "G006968E45352N",
        "massif": "Vanoise",
        "year": 2003
      },
      "geometry": {
        "type": "Point",
        "coordinates": [
          6.96824,
          45.3517
        ]
      }
    },
    {
      "type": "Feature",
      "properties": {
        "name": "de Mean Martin",
        "GLIMS_ID": "G006980E45346N",
        "massif": "Vanoise",
        "year": 2003
      },
      "geometry": {
        "type": "Point",
        "coordinates": [
          6.97955,
          45.3465
        ]
      }
    },
    {
      "type": "Feature",
      "properties": {
        "name": "des Roches Blanches",
        "GLIMS_ID": "G006979E45363N",
        "massif": "Vanoise",
        "year": 2003
      },
      "geometry": {
        "type": "Point",
        "coordinates": [
          6.97889,
          45.3632
        ]
      }
    },
    {
      "type": "Feature",
      "properties": {
        "name": "des Fours",
        "GLIMS_ID": "G006990E45372N",
        "massif": "Vanoise",
        "year": 2003
      },
      "geometry": {
        "type": "Point",
        "coordinates": [
          6.99014,
          45.3723
        ]
      }
    },
    {
      "type": "Feature",
      "properties": {
        "name": "des Roches",
        "GLIMS_ID": "G007005E45370N",
        "massif": "Vanoise",
        "year": 2003
      },
      "geometry": {
        "type": "Point",
        "coordinates": [
          7.00515,
          45.3695
        ]
      }
    },
    {
      "type": "Feature",
      "properties": {
        "name": "de Bezin",
        "GLIMS_ID": "G007009E45383N",
        "massif": "Haute Maurienne",
        "year": 2003
      },
      "geometry": {
        "type": "Point",
        "coordinates": [
          7.00898,
          45.3826
        ]
      }
    },
    {
      "type": "Feature",
      "properties": {
        "name": "du Fond 1",
        "GLIMS_ID": "G007009E45389N",
        "massif": "Haute Maurienne",
        "year": 2003
      },
      "geometry": {
        "type": "Point",
        "coordinates": [
          7.00878,
          45.3894
        ]
      }
    },
    {
      "type": "Feature",
      "properties": {
        "name": "de la Jave 1",
        "GLIMS_ID": "G007012E45396N",
        "massif": "Haute Maurienne",
        "year": 2003
      },
      "geometry": {
        "type": "Point",
        "coordinates": [
          7.01203,
          45.3956
        ]
      }
    },
    {
      "type": "Feature",
      "properties": {
        "name": "de la Jave 2",
        "GLIMS_ID": "G007015E45395N",
        "massif": "Haute Maurienne",
        "year": 2003
      },
      "geometry": {
        "type": "Point",
        "coordinates": [
          7.01544,
          45.3945
        ]
      }
    },
    {
      "type": "Feature",
      "properties": {
        "name": "de Belle Place",
        "GLIMS_ID": "G006767E45290N",
        "massif": "Vanoise",
        "year": 2004
      },
      "geometry": {
        "type": "Point",
        "coordinates": [
          6.7671,
          45.2898
        ]
      }
    },
    {
      "type": "Feature",
      "properties": {
        "name": "de Labby 1",
        "GLIMS_ID": "G006733E45291N",
        "massif": "Vanoise",
        "year": 2003
      },
      "geometry": {
        "type": "Point",
        "coordinates": [
          6.73332,
          45.2913
        ]
      }
    },
    {
      "type": "Feature",
      "properties": {
        "name": "Genepy",
        "GLIMS_ID": "G006727E45309N",
        "massif": "Vanoise",
        "year": 2003
      },
      "geometry": {
        "type": "Point",
        "coordinates": [
          6.72711,
          45.3095
        ]
      }
    },
    {
      "type": "Feature",
      "properties": {
        "name": "Arpont",
        "GLIMS_ID": "G006756E45318N",
        "massif": "Vanoise",
        "year": 2003
      },
      "geometry": {
        "type": "Point",
        "coordinates": [
          6.75643,
          45.3183
        ]
      }
    },
    {
      "type": "Feature",
      "properties": {
        "name": "Sonnailles / Nant",
        "GLIMS_ID": "G006747E45337N",
        "massif": "Vanoise",
        "year": 2003
      },
      "geometry": {
        "type": "Point",
        "coordinates": [
          6.74713,
          45.337
        ]
      }
    },
    {
      "type": "Feature",
      "properties": {
        "name": "du Pelve 1",
        "GLIMS_ID": "G006763E45344N",
        "massif": "Vanoise",
        "year": 2003
      },
      "geometry": {
        "type": "Point",
        "coordinates": [
          6.76265,
          45.3441
        ]
      }
    },
    {
      "type": "Feature",
      "properties": {
        "name": "du Grand Marchet",
        "GLIMS_ID": "G006765E45361N",
        "massif": "Vanoise",
        "year": 2003
      },
      "geometry": {
        "type": "Point",
        "coordinates": [
          6.76485,
          45.3614
        ]
      }
    },
    {
      "type": "Feature",
      "properties": {
        "name": "de l'Arcelin",
        "GLIMS_ID": "G006780E45369N",
        "massif": "Vanoise",
        "year": 2003
      },
      "geometry": {
        "type": "Point",
        "coordinates": [
          6.78025,
          45.3692
        ]
      }
    },
    {
      "type": "Feature",
      "properties": {
        "name": "de la Rechasse",
        "GLIMS_ID": "G006799E45376N",
        "massif": "Vanoise",
        "year": 2003
      },
      "geometry": {
        "type": "Point",
        "coordinates": [
          6.79854,
          45.3761
        ]
      }
    },
    {
      "type": "Feature",
      "properties": {
        "name": "de la Masse",
        "GLIMS_ID": "G006676E45274N",
        "massif": "Vanoise",
        "year": 2003
      },
      "geometry": {
        "type": "Point",
        "coordinates": [
          6.6761,
          45.2736
        ]
      }
    },
    {
      "type": "Feature",
      "properties": {
        "name": "de Polset Centre",
        "GLIMS_ID": "G006640E45274N",
        "massif": "Vanoise",
        "year": 2003
      },
      "geometry": {
        "type": "Point",
        "coordinates": [
          6.64001,
          45.2738
        ]
      }
    },
    {
      "type": "Feature",
      "properties": {
        "name": "de Chaviere",
        "GLIMS_ID": "G006615E45266N",
        "massif": "Vanoise",
        "year": 2003
      },
      "geometry": {
        "type": "Point",
        "coordinates": [
          6.61544,
          45.2658
        ]
      }
    },
    {
      "type": "Feature",
      "properties": {
        "name": "du Bouchet 1",
        "GLIMS_ID": "G006602E45262N",
        "massif": "Vanoise",
        "year": 2003
      },
      "geometry": {
        "type": "Point",
        "coordinates": [
          6.602,
          45.262
        ]
      }
    },
    {
      "type": "Feature",
      "properties": {
        "name": "des Saints Peres",
        "GLIMS_ID": "G006610E45281N",
        "massif": "Vanoise",
        "year": 2003
      },
      "geometry": {
        "type": "Point",
        "coordinates": [
          6.60951,
          45.2807
        ]
      }
    },
    {
      "type": "Feature",
      "properties": {
        "name": "Face Ouest",
        "GLIMS_ID": "G006613E45285N",
        "massif": "Vanoise",
        "year": 2003
      },
      "geometry": {
        "type": "Point",
        "coordinates": [
          6.61316,
          45.2846
        ]
      }
    },
    {
      "type": "Feature",
      "properties": {
        "name": "de Gebroulaz",
        "GLIMS_ID": "G006629E45295N",
        "massif": "Vanoise",
        "year": 2003
      },
      "geometry": {
        "type": "Point",
        "coordinates": [
          6.62902,
          45.2947
        ]
      }
    },
    {
      "type": "Feature",
      "properties": {
        "name": "de Polset Ouest",
        "GLIMS_ID": "G006631E45271N",
        "massif": "Vanoise",
        "year": 2003
      },
      "geometry": {
        "type": "Point",
        "coordinates": [
          6.63056,
          45.2709
        ]
      }
    },
    {
      "type": "Feature",
      "properties": {
        "name": "du Borgne",
        "GLIMS_ID": "G006609E45309N",
        "massif": "Vanoise",
        "year": 2003
      },
      "geometry": {
        "type": "Point",
        "coordinates": [
          6.60884,
          45.3092
        ]
      }
    },
    {
      "type": "Feature",
      "properties": {
        "name": "des Grandes Pareis",
        "GLIMS_ID": "G007109E45301N",
        "massif": "Haute Maurienne",
        "year": 2003
      },
      "geometry": {
        "type": "Point",
        "coordinates": [
          7.1085,
          45.3008
        ]
      }
    },
    {
      "type": "Feature",
      "properties": {
        "name": "des Audras (?)",
        "GLIMS_ID": "G007108E45318N",
        "massif": "Haute Maurienne",
        "year": 2003
      },
      "geometry": {
        "type": "Point",
        "coordinates": [
          7.1081,
          45.3178
        ]
      }
    },
    {
      "type": "Feature",
      "properties": {
        "name": "du Grand Fond",
        "GLIMS_ID": "G007097E45329N",
        "massif": "Haute Maurienne",
        "year": 2003
      },
      "geometry": {
        "type": "Point",
        "coordinates": [
          7.09701,
          45.329
        ]
      }
    },
    {
      "type": "Feature",
      "properties": {
        "name": "du Colerin 1",
        "GLIMS_ID": "G007097E45329N",
        "massif": "Haute Maurienne",
        "year": 2003
      },
      "geometry": {
        "type": "Point",
        "coordinates": [
          7.09701,
          45.329
        ]
      }
    },
    {
      "type": "Feature",
      "properties": {
        "name": "Superieur du Vallonnet",
        "GLIMS_ID": "G007087E45341N",
        "massif": "Haute Maurienne",
        "year": 2003
      },
      "geometry": {
        "type": "Point",
        "coordinates": [
          7.08692,
          45.3409
        ]
      }
    },
    {
      "type": "Feature",
      "properties": {
        "name": "Inferieur du Vallonnet",
        "GLIMS_ID": "G007088E45350N",
        "massif": "Vanoise",
        "year": 2003
      },
      "geometry": {
        "type": "Point",
        "coordinates": [
          7.08795,
          45.35
        ]
      }
    },
    {
      "type": "Feature",
      "properties": {
        "name": "des Evettes",
        "GLIMS_ID": "G007119E45337N",
        "massif": "Haute Maurienne",
        "year": 2003
      },
      "geometry": {
        "type": "Point",
        "coordinates": [
          7.11929,
          45.3366
        ]
      }
    },
    {
      "type": "Feature",
      "properties": {
        "name": "de la Pointe Bonneval (?)",
        "GLIMS_ID": "G007127E45347N",
        "massif": "Haute Maurienne",
        "year": 2003
      },
      "geometry": {
        "type": "Point",
        "coordinates": [
          7.12733,
          45.3468
        ]
      }
    },
    {
      "type": "Feature",
      "properties": {
        "name": "du Grand Mean Sud",
        "GLIMS_ID": "G007136E45353N",
        "massif": "Haute Maurienne",
        "year": 2003
      },
      "geometry": {
        "type": "Point",
        "coordinates": [
          7.13563,
          45.3531
        ]
      }
    },
    {
      "type": "Feature",
      "properties": {
        "name": "du Grand Mean Nord",
        "GLIMS_ID": "G007143E45363N",
        "massif": "Vanoise",
        "year": 2003
      },
      "geometry": {
        "type": "Point",
        "coordinates": [
          7.14293,
          45.3633
        ]
      }
    },
    {
      "type": "Feature",
      "properties": {
        "name": "du Mulinet",
        "GLIMS_ID": "G007144E45371N",
        "massif": "Haute Maurienne",
        "year": 2003
      },
      "geometry": {
        "type": "Point",
        "coordinates": [
          7.14375,
          45.3715
        ]
      }
    },
    {
      "type": "Feature",
      "properties": {
        "name": "des Trois Becs 1",
        "GLIMS_ID": "G007162E45409N",
        "massif": "Haute Maurienne",
        "year": 2003
      },
      "geometry": {
        "type": "Point",
        "coordinates": [
          7.16217,
          45.4089
        ]
      }
    },
    {
      "type": "Feature",
      "properties": {
        "name": "de Levanna 1 (?)",
        "GLIMS_ID": "G007155E45413N",
        "massif": "Haute Maurienne",
        "year": 2003
      },
      "geometry": {
        "type": "Point",
        "coordinates": [
          7.15484,
          45.4131
        ]
      }
    },
    {
      "type": "Feature",
      "properties": {
        "name": "de Derriere les Lacs",
        "GLIMS_ID": "G007148E45420N",
        "massif": "Haute Maurienne",
        "year": 2003
      },
      "geometry": {
        "type": "Point",
        "coordinates": [
          7.14762,
          45.4199
        ]
      }
    },
    {
      "type": "Feature",
      "properties": {
        "name": "du Baounet 1",
        "GLIMS_ID": "G007117E45255N",
        "massif": "Haute Maurienne",
        "year": 2003
      },
      "geometry": {
        "type": "Point",
        "coordinates": [
          7.11705,
          45.2555
        ]
      }
    },
    {
      "type": "Feature",
      "properties": {
        "name": "du Col Martelli (?) 1 ",
        "GLIMS_ID": "G007127E45263N",
        "massif": "Haute Maurienne",
        "year": 2003
      },
      "geometry": {
        "type": "Point",
        "coordinates": [
          7.12676,
          45.263
        ]
      }
    },
    {
      "type": "Feature",
      "properties": {
        "name": "d'Arberon",
        "GLIMS_ID": "G007119E45275N",
        "massif": "Haute Maurienne",
        "year": 2003
      },
      "geometry": {
        "type": "Point",
        "coordinates": [
          7.11941,
          45.2753
        ]
      }
    },
    {
      "type": "Feature",
      "properties": {
        "name": "d'Arnes",
        "GLIMS_ID": "G007130E45280N",
        "massif": "Haute Maurienne",
        "year": 2003
      },
      "geometry": {
        "type": "Point",
        "coordinates": [
          7.13035,
          45.2801
        ]
      }
    },
    {
      "type": "Feature",
      "properties": {
        "name": "du Col d'Ouille Mouta (?)",
        "GLIMS_ID": "G007062E45273N",
        "massif": "Haute Maurienne",
        "year": 2004
      },
      "geometry": {
        "type": "Point",
        "coordinates": [
          7.06201,
          45.2735
        ]
      }
    },
    {
      "type": "Feature",
      "properties": {
        "name": "de Charbonnel",
        "GLIMS_ID": "G007048E45284N",
        "massif": "Haute Maurienne",
        "year": 2003
      },
      "geometry": {
        "type": "Point",
        "coordinates": [
          7.04849,
          45.2838
        ]
      }
    },
    {
      "type": "Feature",
      "properties": {
        "name": "la Grala de Charbonnel 1",
        "GLIMS_ID": "G007040E45285N",
        "massif": "Haute Maurienne",
        "year": 2003
      },
      "geometry": {
        "type": "Point",
        "coordinates": [
          7.04017,
          45.2854
        ]
      }
    },
    {
      "type": "Feature",
      "properties": {
        "name": "de l'Ouille Mouta",
        "GLIMS_ID": "G007067E45282N",
        "massif": "Vanoise",
        "year": 2003
      },
      "geometry": {
        "type": "Point",
        "coordinates": [
          7.06687,
          45.2825
        ]
      }
    },
    {
      "type": "Feature",
      "properties": {
        "name": "du Grand Fond (?)",
        "GLIMS_ID": "G007057E45259N",
        "massif": "Haute Maurienne",
        "year": 2003
      },
      "geometry": {
        "type": "Point",
        "coordinates": [
          7.05655,
          45.2587
        ]
      }
    },
    {
      "type": "Feature",
      "properties": {
        "name": "Nord de la Grande Felouse (?)",
        "GLIMS_ID": "G007070E45252N",
        "massif": "Haute Maurienne",
        "year": 2003
      },
      "geometry": {
        "type": "Point",
        "coordinates": [
          7.07005,
          45.2522
        ]
      }
    },
    {
      "type": "Feature",
      "properties": {
        "name": "Sud de la Grande Felouse 1 (?)",
        "GLIMS_ID": "G007073E45246N",
        "massif": "Haute Maurienne",
        "year": 2003
      },
      "geometry": {
        "type": "Point",
        "coordinates": [
          7.07285,
          45.2465
        ]
      }
    },
    {
      "type": "Feature",
      "properties": {
        "name": "Rochemelon",
        "GLIMS_ID": "G007067E45221N",
        "massif": "Haute Maurienne",
        "year": 2003
      },
      "geometry": {
        "type": "Point",
        "coordinates": [
          7.06749,
          45.2208
        ]
      }
    },
    {
      "type": "Feature",
      "properties": {
        "name": "de Derriere le Clapier",
        "GLIMS_ID": "G007090E45233N",
        "massif": "Haute Maurienne",
        "year": 2003
      },
      "geometry": {
        "type": "Point",
        "coordinates": [
          7.08997,
          45.2332
        ]
      }
    },
    {
      "type": "Feature",
      "properties": {
        "name": "de l'Arcelle",
        "GLIMS_ID": "G007072E45236N",
        "massif": "Vanoise",
        "year": 2003
      },
      "geometry": {
        "type": "Point",
        "coordinates": [
          7.07164,
          45.236
        ]
      }
    },
    {
      "type": "Feature",
      "properties": {
        "name": "du Lamet",
        "GLIMS_ID": "G006997E45242N",
        "massif": "Haute Maurienne",
        "year": 2003
      },
      "geometry": {
        "type": "Point",
        "coordinates": [
          6.99685,
          45.2419
        ]
      }
    },
    {
      "type": "Feature",
      "properties": {
        "name": "de l'Arcelle Neuve 1",
        "GLIMS_ID": "G006957E45267N",
        "massif": "Haute Maurienne",
        "year": 2003
      },
      "geometry": {
        "type": "Point",
        "coordinates": [
          6.95656,
          45.2666
        ]
      }
    },
    {
      "type": "Feature",
      "properties": {
        "name": "de l'Arcelle Neuve 3",
        "GLIMS_ID": "G006974E45273N",
        "massif": "Haute Maurienne",
        "year": 2003
      },
      "geometry": {
        "type": "Point",
        "coordinates": [
          6.97412,
          45.2735
        ]
      }
    },
    {
      "type": "Feature",
      "properties": {
        "name": "du Vieux",
        "GLIMS_ID": "G006980E45270N",
        "massif": "Haute Maurienne",
        "year": 2003
      },
      "geometry": {
        "type": "Point",
        "coordinates": [
          6.98042,
          45.2696
        ]
      }
    },
    {
      "type": "Feature",
      "properties": {
        "name": "de l'Arcelle Neuve 2",
        "GLIMS_ID": "G006965E45268N",
        "massif": "Haute Maurienne",
        "year": 2003
      },
      "geometry": {
        "type": "Point",
        "coordinates": [
          6.96498,
          45.2681
        ]
      }
    },
    {
      "type": "Feature",
      "properties": {
        "name": "du Bard",
        "GLIMS_ID": "G006931E45182N",
        "massif": "Vanoise",
        "year": 2003
      },
      "geometry": {
        "type": "Point",
        "coordinates": [
          6.9314,
          45.1819
        ]
      }
    },
    {
      "type": "Feature",
      "properties": {
        "name": "Ferrand",
        "GLIMS_ID": "G006893E45141N",
        "massif": "Haute Maurienne",
        "year": 2003
      },
      "geometry": {
        "type": "Point",
        "coordinates": [
          6.89265,
          45.1406
        ]
      }
    },
    {
      "type": "Feature",
      "properties": {
        "name": "Sommellier",
        "GLIMS_ID": "G006856E45134N",
        "massif": "Haute Maurienne",
        "year": 2003
      },
      "geometry": {
        "type": "Point",
        "coordinates": [
          6.8555,
          45.1338
        ]
      }
    },
    {
      "type": "Feature",
      "properties": {
        "name": "d'Ambin",
        "GLIMS_ID": "G006869E45136N",
        "massif": "Haute Maurienne",
        "year": 2003
      },
      "geometry": {
        "type": "Point",
        "coordinates": [
          6.86938,
          45.1356
        ]
      }
    },
    {
      "type": "Feature",
      "properties": {
        "name": "d'Etache",
        "GLIMS_ID": "G006833E45140N",
        "massif": "Haute Maurienne",
        "year": 2003
      },
      "geometry": {
        "type": "Point",
        "coordinates": [
          6.83343,
          45.14
        ]
      }
    },
    {
      "type": "Feature",
      "properties": {
        "name": "Mer de Glace ",
        "GLIMS_ID": "G006934E45883N",
        "massif": "Mont Blanc",
        "year": 2003
      },
      "geometry": {
        "type": "Point",
        "coordinates": [
          6.93439,
          45.8829
        ]
      }
    },
    {
      "type": "Feature",
      "properties": {
        "name": "de la Porte d'Eglise",
        "GLIMS_ID": "G006133E45303N",
        "massif": "Belledonne",
        "year": 2003
      },
      "geometry": {
        "type": "Point",
        "coordinates": [
          6.13309,
          45.303
        ]
      }
    },
    {
      "type": "Feature",
      "properties": {
        "name": "du Bec d'Arguille",
        "GLIMS_ID": "G006137E45273N",
        "massif": "Belledonne",
        "year": 2003
      },
      "geometry": {
        "type": "Point",
        "coordinates": [
          6.13711,
          45.2729
        ]
      }
    },
    {
      "type": "Feature",
      "properties": {
        "name": "du Pic de la Grande Valloire",
        "GLIMS_ID": "G006133E45281N",
        "massif": "Belledonne",
        "year": 2003
      },
      "geometry": {
        "type": "Point",
        "coordinates": [
          6.13336,
          45.2814
        ]
      }
    },
    {
      "type": "Feature",
      "properties": {
        "name": "d'Arguille",
        "GLIMS_ID": "G006125E45280N",
        "massif": "Belledonne",
        "year": 2003
      },
      "geometry": {
        "type": "Point",
        "coordinates": [
          6.12513,
          45.2801
        ]
      }
    },
    {
      "type": "Feature",
      "properties": {
        "name": "de la Combe Madame",
        "GLIMS_ID": "G006126E45249N",
        "massif": "Belledonne",
        "year": 2003
      },
      "geometry": {
        "type": "Point",
        "coordinates": [
          6.12641,
          45.2493
        ]
      }
    },
    {
      "type": "Feature",
      "properties": {
        "name": "de Freydane",
        "GLIMS_ID": "G005985E45171N",
        "massif": "Belledonne",
        "year": 2003
      },
      "geometry": {
        "type": "Point",
        "coordinates": [
          5.98455,
          45.171
        ]
      }
    },
    {
      "type": "Feature",
      "properties": {
        "name": "de la Sitre",
        "GLIMS_ID": "G005956E45173N",
        "massif": "Belledonne",
        "year": 2003
      },
      "geometry": {
        "type": "Point",
        "coordinates": [
          5.95556,
          45.173
        ]
      }
    },
    {
      "type": "Feature",
      "properties": {
        "name": "de Cote Blanc",
        "GLIMS_ID": "G006157E45173N",
        "massif": "Grandes Rousses",
        "year": 2003
      },
      "geometry": {
        "type": "Point",
        "coordinates": [
          6.1566,
          45.173
        ]
      }
    },
    {
      "type": "Feature",
      "properties": {
        "name": "de la Cochette Nord",
        "GLIMS_ID": "G006153E45175N",
        "massif": "Grandes Rousses",
        "year": 2003
      },
      "geometry": {
        "type": "Point",
        "coordinates": [
          6.15289,
          45.1754
        ]
      }
    },
    {
      "type": "Feature",
      "properties": {
        "name": "de la Cochette",
        "GLIMS_ID": "G006149E45171N",
        "massif": "Grandes Rousses",
        "year": 2003
      },
      "geometry": {
        "type": "Point",
        "coordinates": [
          6.14859,
          45.1709
        ]
      }
    },
    {
      "type": "Feature",
      "properties": {
        "name": "de Saint Sorlin",
        "GLIMS_ID": "G006159E45160N",
        "massif": "Grandes Rousses",
        "year": 2003
      },
      "geometry": {
        "type": "Point",
        "coordinates": [
          6.1592,
          45.1597
        ]
      }
    },
    {
      "type": "Feature",
      "properties": {
        "name": "Sud de la Barbarate",
        "GLIMS_ID": "G006137E45153N",
        "massif": "Grandes Rousses",
        "year": 2003
      },
      "geometry": {
        "type": "Point",
        "coordinates": [
          6.13716,
          45.1529
        ]
      }
    },
    {
      "type": "Feature",
      "properties": {
        "name": "Nord de la Barbarate",
        "GLIMS_ID": "G006141E45161N",
        "massif": "Grandes Rousses",
        "year": 2003
      },
      "geometry": {
        "type": "Point",
        "coordinates": [
          6.1408,
          45.1609
        ]
      }
    },
    {
      "type": "Feature",
      "properties": {
        "name": "des Rousses 1",
        "GLIMS_ID": "G006129E45141N",
        "massif": "Grandes Rousses",
        "year": 2003
      },
      "geometry": {
        "type": "Point",
        "coordinates": [
          6.12875,
          45.1405
        ]
      }
    },
    {
      "type": "Feature",
      "properties": {
        "name": "du Grand Sablat 1",
        "GLIMS_ID": "G006132E45128N",
        "massif": "Grandes Rousses",
        "year": 2003
      },
      "geometry": {
        "type": "Point",
        "coordinates": [
          6.13222,
          45.1281
        ]
      }
    },
    {
      "type": "Feature",
      "properties": {
        "name": "Lombard",
        "GLIMS_ID": "G006322E45109N",
        "massif": "Arves",
        "year": 2003
      },
      "geometry": {
        "type": "Point",
        "coordinates": [
          6.32241,
          45.1088
        ]
      }
    },
    {
      "type": "Feature",
      "properties": {
        "name": "du Goleon",
        "GLIMS_ID": "G006334E45099N",
        "massif": "Aiguilles d'Arves",
        "year": 2003
      },
      "geometry": {
        "type": "Point",
        "coordinates": [
          6.33395,
          45.0993
        ]
      }
    },
    {
      "type": "Feature",
      "properties": {
        "name": "de la Pointe Salvador 1",
        "GLIMS_ID": "G006337E45116N",
        "massif": "Aiguilles d'Arves",
        "year": 2003
      },
      "geometry": {
        "type": "Point",
        "coordinates": [
          6.33659,
          45.1161
        ]
      }
    },
    {
      "type": "Feature",
      "properties": {
        "name": "de Gros Jean",
        "GLIMS_ID": "G006340E45124N",
        "massif": "Arves",
        "year": 2003
      },
      "geometry": {
        "type": "Point",
        "coordinates": [
          6.33951,
          45.1236
        ]
      }
    },
    {
      "type": "Feature",
      "properties": {
        "name": "des Aiguilles d'Arves",
        "GLIMS_ID": "G006341E45127N",
        "massif": "Arves",
        "year": 2003
      },
      "geometry": {
        "type": "Point",
        "coordinates": [
          6.34062,
          45.1275
        ]
      }
    },
    {
      "type": "Feature",
      "properties": {
        "name": "de la Clapiere",
        "GLIMS_ID": "G006440E45066N",
        "massif": "Galibier",
        "year": 2003
      },
      "geometry": {
        "type": "Point",
        "coordinates": [
          6.43954,
          45.0655
        ]
      }
    },
    {
      "type": "Feature",
      "properties": {
        "name": "Rampant / Ouest de Villard Notre Dame",
        "GLIMS_ID": "G006028E44984N",
        "massif": "Ecrins",
        "year": 2003
      },
      "geometry": {
        "type": "Point",
        "coordinates": [
          6.02842,
          44.9838
        ]
      }
    },
    {
      "type": "Feature",
      "properties": {
        "name": "Ouest de la Selle",
        "GLIMS_ID": "G006260E44995N",
        "massif": "Ecrins",
        "year": 2003
      },
      "geometry": {
        "type": "Point",
        "coordinates": [
          6.26003,
          44.9945
        ]
      }
    },
    {
      "type": "Feature",
      "properties": {
        "name": "du Rateau",
        "GLIMS_ID": "G006284E45012N",
        "massif": "Ecrins",
        "year": 2003
      },
      "geometry": {
        "type": "Point",
        "coordinates": [
          6.2841,
          45.0117
        ]
      }
    },
    {
      "type": "Feature",
      "properties": {
        "name": "de la Selle 1",
        "GLIMS_ID": "G006256E44974N",
        "massif": "Ecrins",
        "year": 2003
      },
      "geometry": {
        "type": "Point",
        "coordinates": [
          6.27415,
          44.9919
        ]
      }
    },
    {
      "type": "Feature",
      "properties": {
        "name": "du Col du Replat",
        "GLIMS_ID": "G006282E44983N",
        "massif": "Ecrins",
        "year": 2003
      },
      "geometry": {
        "type": "Point",
        "coordinates": [
          6.28156,
          44.9832
        ]
      }
    },
    {
      "type": "Feature",
      "properties": {
        "name": "de la Breche du Rateau 2",
        "GLIMS_ID": "G006285E44990N",
        "massif": "Ecrins",
        "year": 2003
      },
      "geometry": {
        "type": "Point",
        "coordinates": [
          6.28544,
          44.9901
        ]
      }
    },
    {
      "type": "Feature",
      "properties": {
        "name": "de la Breche du Replat",
        "GLIMS_ID": "G006285E44987N",
        "massif": "Ecrins",
        "year": 2003
      },
      "geometry": {
        "type": "Point",
        "coordinates": [
          6.28548,
          44.9866
        ]
      }
    },
    {
      "type": "Feature",
      "properties": {
        "name": "de la Breche du Rateau 1",
        "GLIMS_ID": "G006287E44995N",
        "massif": "Ecrins",
        "year": 2003
      },
      "geometry": {
        "type": "Point",
        "coordinates": [
          6.28729,
          44.9947
        ]
      }
    },
    {
      "type": "Feature",
      "properties": {
        "name": "des Etancons 1",
        "GLIMS_ID": "G006293E44998N",
        "massif": "Ecrins",
        "year": 2003
      },
      "geometry": {
        "type": "Point",
        "coordinates": [
          6.29281,
          44.9981
        ]
      }
    },
    {
      "type": "Feature",
      "properties": {
        "name": "de l'Arena Suspendu",
        "GLIMS_ID": "G006272E44954N",
        "massif": "Ecrins",
        "year": 2003
      },
      "geometry": {
        "type": "Point",
        "coordinates": [
          6.27235,
          44.9541
        ]
      }
    },
    {
      "type": "Feature",
      "properties": {
        "name": "de l'Arena",
        "GLIMS_ID": "G006270E44957N",
        "massif": "Ecrins",
        "year": 2003
      },
      "geometry": {
        "type": "Point",
        "coordinates": [
          6.27026,
          44.9567
        ]
      }
    },
    {
      "type": "Feature",
      "properties": {
        "name": "du Col Sud du Plaret 1",
        "GLIMS_ID": "G006260E44958N",
        "massif": "Ecrins",
        "year": 2003
      },
      "geometry": {
        "type": "Point",
        "coordinates": [
          6.25982,
          44.9577
        ]
      }
    },
    {
      "type": "Feature",
      "properties": {
        "name": "Ouest de la Tete du Rouget",
        "GLIMS_ID": "G006257E44954N",
        "massif": "Ecrins",
        "year": 2003
      },
      "geometry": {
        "type": "Point",
        "coordinates": [
          6.25711,
          44.9543
        ]
      }
    },
    {
      "type": "Feature",
      "properties": {
        "name": "du Col Nord du Plaret",
        "GLIMS_ID": "G006261E44961N",
        "massif": "Ecrins",
        "year": 2003
      },
      "geometry": {
        "type": "Point",
        "coordinates": [
          6.26094,
          44.9612
        ]
      }
    },
    {
      "type": "Feature",
      "properties": {
        "name": "Sud Est du Soreiller 1",
        "GLIMS_ID": "G006257E44965N",
        "massif": "Ecrins",
        "year": 2003
      },
      "geometry": {
        "type": "Point",
        "coordinates": [
          6.25738,
          44.9648
        ]
      }
    },
    {
      "type": "Feature",
      "properties": {
        "name": "du Soreiller",
        "GLIMS_ID": "G006245E44966N",
        "massif": "Ecrins",
        "year": 2003
      },
      "geometry": {
        "type": "Point",
        "coordinates": [
          6.24517,
          44.9657
        ]
      }
    },
    {
      "type": "Feature",
      "properties": {
        "name": "Ouest du Diable",
        "GLIMS_ID": "G006239E44970N",
        "massif": "Ecrins",
        "year": 2003
      },
      "geometry": {
        "type": "Point",
        "coordinates": [
          6.23941,
          44.9703
        ]
      }
    },
    {
      "type": "Feature",
      "properties": {
        "name": "Ouest du Soreiller",
        "GLIMS_ID": "G006235E44965N",
        "massif": "Ecrins",
        "year": 2003
      },
      "geometry": {
        "type": "Point",
        "coordinates": [
          6.23505,
          44.9652
        ]
      }
    },
    {
      "type": "Feature",
      "properties": {
        "name": "Suspendu 2",
        "GLIMS_ID": "G006223E44966N",
        "massif": "Ecrins",
        "year": 2003
      },
      "geometry": {
        "type": "Point",
        "coordinates": [
          6.22308,
          44.9662
        ]
      }
    },
    {
      "type": "Feature",
      "properties": {
        "name": "de Burlan",
        "GLIMS_ID": "G006217E44970N",
        "massif": "Ecrins",
        "year": 2003
      },
      "geometry": {
        "type": "Point",
        "coordinates": [
          6.21691,
          44.9704
        ]
      }
    },
    {
      "type": "Feature",
      "properties": {
        "name": "du Routier Inferieur",
        "GLIMS_ID": "G006214E44963N",
        "massif": "Ecrins",
        "year": 2003
      },
      "geometry": {
        "type": "Point",
        "coordinates": [
          6.21445,
          44.9631
        ]
      }
    },
    {
      "type": "Feature",
      "properties": {
        "name": "du Routier Superieur",
        "GLIMS_ID": "G006217E44964N",
        "massif": "Ecrins",
        "year": 2003
      },
      "geometry": {
        "type": "Point",
        "coordinates": [
          6.21749,
          44.964
        ]
      }
    },
    {
      "type": "Feature",
      "properties": {
        "name": "du Tabuchet",
        "GLIMS_ID": "G006321E45014N",
        "massif": "Ecrins",
        "year": 2003
      },
      "geometry": {
        "type": "Point",
        "coordinates": [
          6.32108,
          45.0145
        ]
      }
    },
    {
      "type": "Feature",
      "properties": {
        "name": "Seille Vieille 3",
        "GLIMS_ID": "G006343E45020N",
        "massif": "Ecrins",
        "year": 2003
      },
      "geometry": {
        "type": "Point",
        "coordinates": [
          6.34269,
          45.02
        ]
      }
    },
    {
      "type": "Feature",
      "properties": {
        "name": "Seille Vieille 2",
        "GLIMS_ID": "G006340E45020N",
        "massif": "Ecrins",
        "year": 2003
      },
      "geometry": {
        "type": "Point",
        "coordinates": [
          6.3397,
          45.0196
        ]
      }
    },
    {
      "type": "Feature",
      "properties": {
        "name": "Seille Vieille 1",
        "GLIMS_ID": "G006335E45019N",
        "massif": "Ecrins",
        "year": 2003
      },
      "geometry": {
        "type": "Point",
        "coordinates": [
          6.33549,
          45.0192
        ]
      }
    },
    {
      "type": "Feature",
      "properties": {
        "name": "de l'Homme",
        "GLIMS_ID": "G006329E45010N",
        "massif": "Ecrins",
        "year": 2003
      },
      "geometry": {
        "type": "Point",
        "coordinates": [
          6.32871,
          45.0102
        ]
      }
    },
    {
      "type": "Feature",
      "properties": {
        "name": "du Lautaret",
        "GLIMS_ID": "G006339E45007N",
        "massif": "Ecrins",
        "year": 2003
      },
      "geometry": {
        "type": "Point",
        "coordinates": [
          6.33899,
          45.0065
        ]
      }
    },
    {
      "type": "Feature",
      "properties": {
        "name": "d'Armende",
        "GLIMS_ID": "G006345E45004N",
        "massif": "Ecrins",
        "year": 2003
      },
      "geometry": {
        "type": "Point",
        "coordinates": [
          6.3449,
          45.004
        ]
      }
    },
    {
      "type": "Feature",
      "properties": {
        "name": "le Fauteuil Glacier",
        "GLIMS_ID": "G006354E45003N",
        "massif": "Ecrins",
        "year": 2003
      },
      "geometry": {
        "type": "Point",
        "coordinates": [
          6.35381,
          45.0031
        ]
      }
    },
    {
      "type": "Feature",
      "properties": {
        "name": "Claire 3",
        "GLIMS_ID": "G006344E44997N",
        "massif": "Ecrins",
        "year": 2003
      },
      "geometry": {
        "type": "Point",
        "coordinates": [
          6.3438,
          44.9966
        ]
      }
    },
    {
      "type": "Feature",
      "properties": {
        "name": "Claire 1",
        "GLIMS_ID": "G006336E44998N",
        "massif": "Ecrins",
        "year": 2003
      },
      "geometry": {
        "type": "Point",
        "coordinates": [
          6.33612,
          44.9981
        ]
      }
    },
    {
      "type": "Feature",
      "properties": {
        "name": "du Clot Boucharet",
        "GLIMS_ID": "G006361E45000N",
        "massif": "Ecrins",
        "year": 2003
      },
      "geometry": {
        "type": "Point",
        "coordinates": [
          6.36075,
          44.9998
        ]
      }
    },
    {
      "type": "Feature",
      "properties": {
        "name": "du Clot des Cavales",
        "GLIMS_ID": "G006331E44977N",
        "massif": "Ecrins",
        "year": 2003
      },
      "geometry": {
        "type": "Point",
        "coordinates": [
          6.33104,
          44.9769
        ]
      }
    },
    {
      "type": "Feature",
      "properties": {
        "name": "de la Grande Ruine",
        "GLIMS_ID": "G006321E44965N",
        "massif": "Ecrins",
        "year": 2003
      },
      "geometry": {
        "type": "Point",
        "coordinates": [
          6.32086,
          44.9652
        ]
      }
    },
    {
      "type": "Feature",
      "properties": {
        "name": "du Bourcet",
        "GLIMS_ID": "G006321E44959N",
        "massif": "Ecrins",
        "year": 2003
      },
      "geometry": {
        "type": "Point",
        "coordinates": [
          6.32077,
          44.9592
        ]
      }
    },
    {
      "type": "Feature",
      "properties": {
        "name": "du Monetier 2",
        "GLIMS_ID": "G006450E44934N",
        "massif": "Ecrins",
        "year": 2003
      },
      "geometry": {
        "type": "Point",
        "coordinates": [
          6.45027,
          44.9335
        ]
      }
    },
    {
      "type": "Feature",
      "properties": {
        "name": "du Monetier 1",
        "GLIMS_ID": "G006439E44949N",
        "massif": "Ecrins",
        "year": 2003
      },
      "geometry": {
        "type": "Point",
        "coordinates": [
          6.43894,
          44.9487
        ]
      }
    },
    {
      "type": "Feature",
      "properties": {
        "name": "du Reou d'Arsine",
        "GLIMS_ID": "G006431E44963N",
        "massif": "Ecrins",
        "year": 2003
      },
      "geometry": {
        "type": "Point",
        "coordinates": [
          6.43061,
          44.9627
        ]
      }
    },
    {
      "type": "Feature",
      "properties": {
        "name": "du Casset 1",
        "GLIMS_ID": "G006439E44956N",
        "massif": "Ecrins",
        "year": 2003
      },
      "geometry": {
        "type": "Point",
        "coordinates": [
          6.43908,
          44.9565
        ]
      }
    },
    {
      "type": "Feature",
      "properties": {
        "name": "d'Arsine",
        "GLIMS_ID": "G006416E44959N",
        "massif": "Ecrins",
        "year": 2003
      },
      "geometry": {
        "type": "Point",
        "coordinates": [
          6.41631,
          44.9589
        ]
      }
    },
    {
      "type": "Feature",
      "properties": {
        "name": "Tuckett 1",
        "GLIMS_ID": "G006423E44950N",
        "massif": "Ecrins",
        "year": 2003
      },
      "geometry": {
        "type": "Point",
        "coordinates": [
          6.42343,
          44.9495
        ]
      }
    },
    {
      "type": "Feature",
      "properties": {
        "name": "du Rif de la Planche",
        "GLIMS_ID": "G006393E44967N",
        "massif": "Ecrins",
        "year": 2003
      },
      "geometry": {
        "type": "Point",
        "coordinates": [
          6.393,
          44.9674
        ]
      }
    },
    {
      "type": "Feature",
      "properties": {
        "name": "du Dragon",
        "GLIMS_ID": "G006389E44972N",
        "massif": "Ecrins",
        "year": 2003
      },
      "geometry": {
        "type": "Point",
        "coordinates": [
          6.38887,
          44.9716
        ]
      }
    },
    {
      "type": "Feature",
      "properties": {
        "name": "de Chamoissiere",
        "GLIMS_ID": "G006384E44977N",
        "massif": "Ecrins",
        "year": 2003
      },
      "geometry": {
        "type": "Point",
        "coordinates": [
          6.3841,
          44.9766
        ]
      }
    },
    {
      "type": "Feature",
      "properties": {
        "name": "de la Plate des Agneaux / de Tombe Muree",
        "GLIMS_ID": "G006350E44954N",
        "massif": "Ecrins",
        "year": 2003
      },
      "geometry": {
        "type": "Point",
        "coordinates": [
          6.34987,
          44.954
        ]
      }
    },
    {
      "type": "Feature",
      "properties": {
        "name": "de la Somme",
        "GLIMS_ID": "G006327E44945N",
        "massif": "Ecrins",
        "year": 2003
      },
      "geometry": {
        "type": "Point",
        "coordinates": [
          6.32659,
          44.9449
        ]
      }
    },
    {
      "type": "Feature",
      "properties": {
        "name": "d'Alvau 2",
        "GLIMS_ID": "G006338E44942N",
        "massif": "Ecrins",
        "year": 2003
      },
      "geometry": {
        "type": "Point",
        "coordinates": [
          6.33809,
          44.9416
        ]
      }
    },
    {
      "type": "Feature",
      "properties": {
        "name": "de la Breche d'Alvau 2",
        "GLIMS_ID": "G006350E44941N",
        "massif": "Ecrins",
        "year": 2003
      },
      "geometry": {
        "type": "Point",
        "coordinates": [
          6.35019,
          44.9405
        ]
      }
    },
    {
      "type": "Feature",
      "properties": {
        "name": "de la Roche Faurio",
        "GLIMS_ID": "G006370E44952N",
        "massif": "Ecrins",
        "year": 2003
      },
      "geometry": {
        "type": "Point",
        "coordinates": [
          6.36964,
          44.9522
        ]
      }
    },
    {
      "type": "Feature",
      "properties": {
        "name": "des Agneaux",
        "GLIMS_ID": "G006383E44960N",
        "massif": "Ecrins",
        "year": 2003
      },
      "geometry": {
        "type": "Point",
        "coordinates": [
          6.38348,
          44.9602
        ]
      }
    },
    {
      "type": "Feature",
      "properties": {
        "name": "de Bonnepierre 1",
        "GLIMS_ID": "G006337E44931N",
        "massif": "Ecrins",
        "year": 2003
      },
      "geometry": {
        "type": "Point",
        "coordinates": [
          6.33741,
          44.9309
        ]
      }
    },
    {
      "type": "Feature",
      "properties": {
        "name": "de la Vera Pervoz",
        "GLIMS_ID": "G006329E44919N",
        "massif": "Ecrins",
        "year": 2003
      },
      "geometry": {
        "type": "Point",
        "coordinates": [
          6.3287,
          44.9191
        ]
      }
    },
    {
      "type": "Feature",
      "properties": {
        "name": "du Vallon de la Pilatte",
        "GLIMS_ID": "G006347E44919N",
        "massif": "Ecrins",
        "year": 2003
      },
      "geometry": {
        "type": "Point",
        "coordinates": [
          6.34726,
          44.9191
        ]
      }
    },
    {
      "type": "Feature",
      "properties": {
        "name": "de la Temple 2",
        "GLIMS_ID": "G006353E44904N",
        "massif": "Ecrins",
        "year": 2003
      },
      "geometry": {
        "type": "Point",
        "coordinates": [
          6.35251,
          44.9037
        ]
      }
    },
    {
      "type": "Feature",
      "properties": {
        "name": "de la Temple 3",
        "GLIMS_ID": "G006353E44900N",
        "massif": "Ecrins",
        "year": 2003
      },
      "geometry": {
        "type": "Point",
        "coordinates": [
          6.35327,
          44.8995
        ]
      }
    },
    {
      "type": "Feature",
      "properties": {
        "name": "de la Momie",
        "GLIMS_ID": "G006402E44910N",
        "massif": "Ecrins",
        "year": 2003
      },
      "geometry": {
        "type": "Point",
        "coordinates": [
          6.40167,
          44.9099
        ]
      }
    },
    {
      "type": "Feature",
      "properties": {
        "name": "Clot-de-l'Homme / Pelvoux / Violettes",
        "GLIMS_ID": "G006408E44900N",
        "massif": "Ecrins",
        "year": 2003
      },
      "geometry": {
        "type": "Point",
        "coordinates": [
          6.40818,
          44.8997
        ]
      }
    },
    {
      "type": "Feature",
      "properties": {
        "name": "de Sialouze",
        "GLIMS_ID": "G006391E44890N",
        "massif": "Ecrins",
        "year": 2003
      },
      "geometry": {
        "type": "Point",
        "coordinates": [
          6.39115,
          44.8901
        ]
      }
    },
    {
      "type": "Feature",
      "properties": {
        "name": "du Coup de Sabre 1",
        "GLIMS_ID": "G006376E44885N",
        "massif": "Ecrins",
        "year": 2003
      },
      "geometry": {
        "type": "Point",
        "coordinates": [
          6.37637,
          44.8852
        ]
      }
    },
    {
      "type": "Feature",
      "properties": {
        "name": "de l'Ailefroide 1",
        "GLIMS_ID": "G006364E44882N",
        "massif": "Ecrins",
        "year": 2003
      },
      "geometry": {
        "type": "Point",
        "coordinates": [
          6.36393,
          44.882
        ]
      }
    },
    {
      "type": "Feature",
      "properties": {
        "name": "Suspendu de l'Ailefroide",
        "GLIMS_ID": "G006360E44890N",
        "massif": "Ecrins",
        "year": 2003
      },
      "geometry": {
        "type": "Point",
        "coordinates": [
          6.36047,
          44.8899
        ]
      }
    },
    {
      "type": "Feature",
      "properties": {
        "name": "Long",
        "GLIMS_ID": "G006348E44885N",
        "massif": "Ecrins",
        "year": 2003
      },
      "geometry": {
        "type": "Point",
        "coordinates": [
          6.34775,
          44.8847
        ]
      }
    },
    {
      "type": "Feature",
      "properties": {
        "name": "de Coste Rouge",
        "GLIMS_ID": "G006351E44891N",
        "massif": "Ecrins",
        "year": 2003
      },
      "geometry": {
        "type": "Point",
        "coordinates": [
          6.35113,
          44.8905
        ]
      }
    },
    {
      "type": "Feature",
      "properties": {
        "name": "Gris",
        "GLIMS_ID": "G006345E44877N",
        "massif": "Ecrins",
        "year": 2003
      },
      "geometry": {
        "type": "Point",
        "coordinates": [
          6.34529,
          44.8769
        ]
      }
    },
    {
      "type": "Feature",
      "properties": {
        "name": "de la Cime du Coin",
        "GLIMS_ID": "G006349E44875N",
        "massif": "Ecrins",
        "year": 2003
      },
      "geometry": {
        "type": "Point",
        "coordinates": [
          6.34893,
          44.8748
        ]
      }
    },
    {
      "type": "Feature",
      "properties": {
        "name": "de l'Ailefroide 2",
        "GLIMS_ID": "G006356E44878N",
        "massif": "Ecrins",
        "year": 2003
      },
      "geometry": {
        "type": "Point",
        "coordinates": [
          6.3556,
          44.8783
        ]
      }
    },
    {
      "type": "Feature",
      "properties": {
        "name": "de l'Ailefroide 3",
        "GLIMS_ID": "G006357E44868N",
        "massif": "Ecrins",
        "year": 2003
      },
      "geometry": {
        "type": "Point",
        "coordinates": [
          6.35725,
          44.8685
        ]
      }
    },
    {
      "type": "Feature",
      "properties": {
        "name": "des Boeufs Rouges",
        "GLIMS_ID": "G006389E44864N",
        "massif": "Ecrins",
        "year": 2003
      },
      "geometry": {
        "type": "Point",
        "coordinates": [
          6.38878,
          44.8641
        ]
      }
    },
    {
      "type": "Feature",
      "properties": {
        "name": "du Coin",
        "GLIMS_ID": "G006347E44864N",
        "massif": "Ecrins",
        "year": 2003
      },
      "geometry": {
        "type": "Point",
        "coordinates": [
          6.34732,
          44.8645
        ]
      }
    },
    {
      "type": "Feature",
      "properties": {
        "name": "Ouest des Bans",
        "GLIMS_ID": "G006329E44850N",
        "massif": "Ecrins",
        "year": 2003
      },
      "geometry": {
        "type": "Point",
        "coordinates": [
          6.32894,
          44.8503
        ]
      }
    },
    {
      "type": "Feature",
      "properties": {
        "name": "du Gersa",
        "GLIMS_ID": "G006366E44852N",
        "massif": "Ecrins",
        "year": 2003
      },
      "geometry": {
        "type": "Point",
        "coordinates": [
          6.36643,
          44.8522
        ]
      }
    },
    {
      "type": "Feature",
      "properties": {
        "name": "du Fournet 1",
        "GLIMS_ID": "G006358E44853N",
        "massif": "Ecrins",
        "year": 2003
      },
      "geometry": {
        "type": "Point",
        "coordinates": [
          6.35797,
          44.8527
        ]
      }
    },
    {
      "type": "Feature",
      "properties": {
        "name": "des Bans",
        "GLIMS_ID": "G006342E44847N",
        "massif": "Ecrins",
        "year": 2003
      },
      "geometry": {
        "type": "Point",
        "coordinates": [
          6.34186,
          44.8467
        ]
      }
    },
    {
      "type": "Feature",
      "properties": {
        "name": "de la Condamine",
        "GLIMS_ID": "G006318E44844N",
        "massif": "Ecrins",
        "year": 2003
      },
      "geometry": {
        "type": "Point",
        "coordinates": [
          6.31818,
          44.8445
        ]
      }
    },
    {
      "type": "Feature",
      "properties": {
        "name": "du Says",
        "GLIMS_ID": "G006319E44867N",
        "massif": "Ecrins",
        "year": 2003
      },
      "geometry": {
        "type": "Point",
        "coordinates": [
          6.31917,
          44.8668
        ]
      }
    },
    {
      "type": "Feature",
      "properties": {
        "name": "du Gioberney 1",
        "GLIMS_ID": "G006322E44861N",
        "massif": "Ecrins",
        "year": 2003
      },
      "geometry": {
        "type": "Point",
        "coordinates": [
          6.3216,
          44.8612
        ]
      }
    },
    {
      "type": "Feature",
      "properties": {
        "name": "de Boverjat",
        "GLIMS_ID": "G006311E44879N",
        "massif": "Ecrins",
        "year": 2003
      },
      "geometry": {
        "type": "Point",
        "coordinates": [
          6.31128,
          44.8791
        ]
      }
    },
    {
      "type": "Feature",
      "properties": {
        "name": "du Cheret",
        "GLIMS_ID": "G006315E44890N",
        "massif": "Ecrins",
        "year": 2003
      },
      "geometry": {
        "type": "Point",
        "coordinates": [
          6.31466,
          44.8901
        ]
      }
    },
    {
      "type": "Feature",
      "properties": {
        "name": "du Col du Cheret",
        "GLIMS_ID": "G006314E44884N",
        "massif": "Ecrins",
        "year": 2003
      },
      "geometry": {
        "type": "Point",
        "coordinates": [
          6.31417,
          44.8843
        ]
      }
    },
    {
      "type": "Feature",
      "properties": {
        "name": "du Vaccivier",
        "GLIMS_ID": "G006289E44871N",
        "massif": "Ecrins",
        "year": 2003
      },
      "geometry": {
        "type": "Point",
        "coordinates": [
          6.28889,
          44.8713
        ]
      }
    },
    {
      "type": "Feature",
      "properties": {
        "name": "de la Grande Roche 3",
        "GLIMS_ID": "G006265E44864N",
        "massif": "Ecrins",
        "year": 2003
      },
      "geometry": {
        "type": "Point",
        "coordinates": [
          6.2654,
          44.8639
        ]
      }
    },
    {
      "type": "Feature",
      "properties": {
        "name": "de la Grande Roche 2",
        "GLIMS_ID": "G006272E44869N",
        "massif": "Ecrins",
        "year": 2003
      },
      "geometry": {
        "type": "Point",
        "coordinates": [
          6.27151,
          44.8688
        ]
      }
    },
    {
      "type": "Feature",
      "properties": {
        "name": "de l'Encoula",
        "GLIMS_ID": "G006285E44911N",
        "massif": "Ecrins",
        "year": 2003
      },
      "geometry": {
        "type": "Point",
        "coordinates": [
          6.2848,
          44.9108
        ]
      }
    },
    {
      "type": "Feature",
      "properties": {
        "name": "de Petit Pierre",
        "GLIMS_ID": "G006279E44906N",
        "massif": "Ecrins",
        "year": 2003
      },
      "geometry": {
        "type": "Point",
        "coordinates": [
          6.27919,
          44.906
        ]
      }
    },
    {
      "type": "Feature",
      "properties": {
        "name": "du Col de l'Encoula",
        "GLIMS_ID": "G006279E44902N",
        "massif": "Ecrins",
        "year": 2003
      },
      "geometry": {
        "type": "Point",
        "coordinates": [
          6.27854,
          44.9022
        ]
      }
    },
    {
      "type": "Feature",
      "properties": {
        "name": "de l'Ane",
        "GLIMS_ID": "G006269E44882N",
        "massif": "Ecrins",
        "year": 2003
      },
      "geometry": {
        "type": "Point",
        "coordinates": [
          6.26883,
          44.8822
        ]
      }
    },
    {
      "type": "Feature",
      "properties": {
        "name": "de l'Etret",
        "GLIMS_ID": "G006246E44886N",
        "massif": "Ecrins",
        "year": 2003
      },
      "geometry": {
        "type": "Point",
        "coordinates": [
          6.2462,
          44.8861
        ]
      }
    },
    {
      "type": "Feature",
      "properties": {
        "name": "de la Lavey (Nord)",
        "GLIMS_ID": "G006259E44882N",
        "massif": "Ecrins",
        "year": 2003
      },
      "geometry": {
        "type": "Point",
        "coordinates": [
          6.25935,
          44.8819
        ]
      }
    },
    {
      "type": "Feature",
      "properties": {
        "name": "du Clocher de l'Etret",
        "GLIMS_ID": "G006241E44893N",
        "massif": "Ecrins",
        "year": 2003
      },
      "geometry": {
        "type": "Point",
        "coordinates": [
          6.24104,
          44.8931
        ]
      }
    },
    {
      "type": "Feature",
      "properties": {
        "name": "des Fetoules",
        "GLIMS_ID": "G006235E44903N",
        "massif": "Ecrins",
        "year": 2003
      },
      "geometry": {
        "type": "Point",
        "coordinates": [
          6.23546,
          44.903
        ]
      }
    },
    {
      "type": "Feature",
      "properties": {
        "name": "de la Pointe Jeanne",
        "GLIMS_ID": "G006241E44904N",
        "massif": "Ecrins",
        "year": 2003
      },
      "geometry": {
        "type": "Point",
        "coordinates": [
          6.24101,
          44.9043
        ]
      }
    },
    {
      "type": "Feature",
      "properties": {
        "name": "de l'Ours",
        "GLIMS_ID": "G006235E44914N",
        "massif": "Ecrins",
        "year": 2003
      },
      "geometry": {
        "type": "Point",
        "coordinates": [
          6.23481,
          44.9139
        ]
      }
    },
    {
      "type": "Feature",
      "properties": {
        "name": "du Fond de la Muhande 1",
        "GLIMS_ID": "G006243E44855N",
        "massif": "Ecrins",
        "year": 2003
      },
      "geometry": {
        "type": "Point",
        "coordinates": [
          6.24255,
          44.8554
        ]
      }
    },
    {
      "type": "Feature",
      "properties": {
        "name": "de la Grande Roche 4",
        "GLIMS_ID": "G006260E44860N",
        "massif": "Ecrins",
        "year": 2003
      },
      "geometry": {
        "type": "Point",
        "coordinates": [
          6.26049,
          44.8598
        ]
      }
    },
    {
      "type": "Feature",
      "properties": {
        "name": "de la Grande Roche 5",
        "GLIMS_ID": "G006259E44856N",
        "massif": "Ecrins",
        "year": 2003
      },
      "geometry": {
        "type": "Point",
        "coordinates": [
          6.25861,
          44.8564
        ]
      }
    },
    {
      "type": "Feature",
      "properties": {
        "name": "de la Rouye 4",
        "GLIMS_ID": "G006223E44847N",
        "massif": "Ecrins",
        "year": 2003
      },
      "geometry": {
        "type": "Point",
        "coordinates": [
          6.22273,
          44.8469
        ]
      }
    },
    {
      "type": "Feature",
      "properties": {
        "name": "du Vallon 2",
        "GLIMS_ID": "G006222E44852N",
        "massif": "Ecrins",
        "year": 2003
      },
      "geometry": {
        "type": "Point",
        "coordinates": [
          6.22157,
          44.8516
        ]
      }
    },
    {
      "type": "Feature",
      "properties": {
        "name": "du Vallon 3",
        "GLIMS_ID": "G006214E44851N",
        "massif": "Ecrins",
        "year": 2003
      },
      "geometry": {
        "type": "Point",
        "coordinates": [
          6.21403,
          44.8509
        ]
      }
    },
    {
      "type": "Feature",
      "properties": {
        "name": "des Sellettes Est 1",
        "GLIMS_ID": "G006216E44862N",
        "massif": "Ecrins",
        "year": 2003
      },
      "geometry": {
        "type": "Point",
        "coordinates": [
          6.21633,
          44.8617
        ]
      }
    },
    {
      "type": "Feature",
      "properties": {
        "name": "de l'Olan",
        "GLIMS_ID": "G006201E44854N",
        "massif": "Ecrins",
        "year": 2003
      },
      "geometry": {
        "type": "Point",
        "coordinates": [
          6.20064,
          44.8543
        ]
      }
    },
    {
      "type": "Feature",
      "properties": {
        "name": "des Sellettes Ouest 1",
        "GLIMS_ID": "G006204E44866N",
        "massif": "Ecrins",
        "year": 2003
      },
      "geometry": {
        "type": "Point",
        "coordinates": [
          6.20402,
          44.8656
        ]
      }
    },
    {
      "type": "Feature",
      "properties": {
        "name": "de la Maye",
        "GLIMS_ID": "G006188E44860N",
        "massif": "Ecrins",
        "year": 2003
      },
      "geometry": {
        "type": "Point",
        "coordinates": [
          6.1882,
          44.8598
        ]
      }
    },
    {
      "type": "Feature",
      "properties": {
        "name": "d'Entre Pierroux",
        "GLIMS_ID": "G006195E44883N",
        "massif": "Ecrins",
        "year": 2003
      },
      "geometry": {
        "type": "Point",
        "coordinates": [
          6.19473,
          44.8827
        ]
      }
    },
    {
      "type": "Feature",
      "properties": {
        "name": "d'Aiguille Rousse 2",
        "GLIMS_ID": "G006185E44882N",
        "massif": "Ecrins",
        "year": 2003
      },
      "geometry": {
        "type": "Point",
        "coordinates": [
          6.18514,
          44.8816
        ]
      }
    },
    {
      "type": "Feature",
      "properties": {
        "name": "Col du Canard",
        "GLIMS_ID": "G006182E44906N",
        "massif": "Ecrins",
        "year": 2003
      },
      "geometry": {
        "type": "Point",
        "coordinates": [
          6.18237,
          44.906
        ]
      }
    },
    {
      "type": "Feature",
      "properties": {
        "name": "Ouest de la Tete de Caborne",
        "GLIMS_ID": "G006182E44911N",
        "massif": "Ecrins",
        "year": 2003
      },
      "geometry": {
        "type": "Point",
        "coordinates": [
          6.18246,
          44.9109
        ]
      }
    },
    {
      "type": "Feature",
      "properties": {
        "name": "du Petit Vallon",
        "GLIMS_ID": "G006174E44892N",
        "massif": "Ecrins",
        "year": 2003
      },
      "geometry": {
        "type": "Point",
        "coordinates": [
          6.17395,
          44.892
        ]
      }
    },
    {
      "type": "Feature",
      "properties": {
        "name": "du Lac 1",
        "GLIMS_ID": "G006178E44893N",
        "massif": "Ecrins",
        "year": 2003
      },
      "geometry": {
        "type": "Point",
        "coordinates": [
          6.17834,
          44.8926
        ]
      }
    },
    {
      "type": "Feature",
      "properties": {
        "name": "du Bec de Canard",
        "GLIMS_ID": "G006179E44896N",
        "massif": "Ecrins",
        "year": 2003
      },
      "geometry": {
        "type": "Point",
        "coordinates": [
          6.179,
          44.8956
        ]
      }
    },
    {
      "type": "Feature",
      "properties": {
        "name": "du Grand Vallon 3",
        "GLIMS_ID": "G006166E44895N",
        "massif": "Ecrins",
        "year": 2003
      },
      "geometry": {
        "type": "Point",
        "coordinates": [
          6.16609,
          44.8947
        ]
      }
    },
    {
      "type": "Feature",
      "properties": {
        "name": "Est de la Haute Pisse 1",
        "GLIMS_ID": "G006140E44907N",
        "massif": "Ecrins",
        "year": 2003
      },
      "geometry": {
        "type": "Point",
        "coordinates": [
          6.13994,
          44.9069
        ]
      }
    },
    {
      "type": "Feature",
      "properties": {
        "name": "Est de la Haute Pisse 2",
        "GLIMS_ID": "G006144E44903N",
        "massif": "Ecrins",
        "year": 2003
      },
      "geometry": {
        "type": "Point",
        "coordinates": [
          6.14416,
          44.9032
        ]
      }
    },
    {
      "type": "Feature",
      "properties": {
        "name": "de la Paroi Ouest des Liches 2",
        "GLIMS_ID": "G006146E44913N",
        "massif": "Ecrins",
        "year": 2003
      },
      "geometry": {
        "type": "Point",
        "coordinates": [
          6.14565,
          44.913
        ]
      }
    },
    {
      "type": "Feature",
      "properties": {
        "name": "de la Paroi Ouest des Liches 1",
        "GLIMS_ID": "G006143E44914N",
        "massif": "Ecrins",
        "year": 2003
      },
      "geometry": {
        "type": "Point",
        "coordinates": [
          6.14337,
          44.914
        ]
      }
    },
    {
      "type": "Feature",
      "properties": {
        "name": "du Montagnon",
        "GLIMS_ID": "G006139E44912N",
        "massif": "Ecrins",
        "year": 2003
      },
      "geometry": {
        "type": "Point",
        "coordinates": [
          6.13899,
          44.9117
        ]
      }
    },
    {
      "type": "Feature",
      "properties": {
        "name": "du Pierroux (Ouest)",
        "GLIMS_ID": "G006149E44931N",
        "massif": "Ecrins",
        "year": 2003
      },
      "geometry": {
        "type": "Point",
        "coordinates": [
          6.14901,
          44.9305
        ]
      }
    },
    {
      "type": "Feature",
      "properties": {
        "name": "de la Paroi du Pierroux",
        "GLIMS_ID": "G006159E44931N",
        "massif": "Ecrins",
        "year": 2003
      },
      "geometry": {
        "type": "Point",
        "coordinates": [
          6.1594,
          44.9307
        ]
      }
    },
    {
      "type": "Feature",
      "properties": {
        "name": "du Pierroux (Est)",
        "GLIMS_ID": "G006162E44931N",
        "massif": "Ecrins",
        "year": 2003
      },
      "geometry": {
        "type": "Point",
        "coordinates": [
          6.16217,
          44.9305
        ]
      }
    },
    {
      "type": "Feature",
      "properties": {
        "name": "de Coin Charnier",
        "GLIMS_ID": "G006112E44909N",
        "massif": "Ecrins",
        "year": 2003
      },
      "geometry": {
        "type": "Point",
        "coordinates": [
          6.11166,
          44.9088
        ]
      }
    },
    {
      "type": "Feature",
      "properties": {
        "name": "Courbe 1",
        "GLIMS_ID": "G006110E44916N",
        "massif": "Ecrins",
        "year": 2003
      },
      "geometry": {
        "type": "Point",
        "coordinates": [
          6.10979,
          44.9163
        ]
      }
    },
    {
      "type": "Feature",
      "properties": {
        "name": "de la Grande Montagne 4",
        "GLIMS_ID": "G006112E44925N",
        "massif": "Ecrins",
        "year": 2003
      },
      "geometry": {
        "type": "Point",
        "coordinates": [
          6.11212,
          44.9254
        ]
      }
    },
    {
      "type": "Feature",
      "properties": {
        "name": "Sud de la Muzelle (?)",
        "GLIMS_ID": "G006104E44928N",
        "massif": "Ecrins",
        "year": 2003
      },
      "geometry": {
        "type": "Point",
        "coordinates": [
          6.10378,
          44.928
        ]
      }
    },
    {
      "type": "Feature",
      "properties": {
        "name": "de la Grande Montagne 3",
        "GLIMS_ID": "G006111E44929N",
        "massif": "Ecrins",
        "year": 2003
      },
      "geometry": {
        "type": "Point",
        "coordinates": [
          6.11125,
          44.9287
        ]
      }
    },
    {
      "type": "Feature",
      "properties": {
        "name": "de la Grande Montagne 2",
        "GLIMS_ID": "G006114E44934N",
        "massif": "Ecrins",
        "year": 2003
      },
      "geometry": {
        "type": "Point",
        "coordinates": [
          6.11369,
          44.934
        ]
      }
    },
    {
      "type": "Feature",
      "properties": {
        "name": "de la Grande Montagne 1",
        "GLIMS_ID": "G006114E44936N",
        "massif": "Ecrins",
        "year": 2003
      },
      "geometry": {
        "type": "Point",
        "coordinates": [
          6.11427,
          44.9363
        ]
      }
    },
    {
      "type": "Feature",
      "properties": {
        "name": "de la Muzelle",
        "GLIMS_ID": "G006109E44936N",
        "massif": "Ecrins",
        "year": 2003
      },
      "geometry": {
        "type": "Point",
        "coordinates": [
          6.10853,
          44.9357
        ]
      }
    },
    {
      "type": "Feature",
      "properties": {
        "name": "du Clapier du Peyron 1",
        "GLIMS_ID": "G006080E44941N",
        "massif": "Ecrins",
        "year": 2003
      },
      "geometry": {
        "type": "Point",
        "coordinates": [
          6.07967,
          44.9405
        ]
      }
    },
    {
      "type": "Feature",
      "properties": {
        "name": "du Peyron / de l'Embernard",
        "GLIMS_ID": "G006079E44949N",
        "massif": "Ecrins",
        "year": 2003
      },
      "geometry": {
        "type": "Point",
        "coordinates": [
          6.07944,
          44.9489
        ]
      }
    },
    {
      "type": "Feature",
      "properties": {
        "name": "des Souffles",
        "GLIMS_ID": "G006136E44867N",
        "massif": "Ecrins",
        "year": 2003
      },
      "geometry": {
        "type": "Point",
        "coordinates": [
          6.1358,
          44.867
        ]
      }
    },
    {
      "type": "Feature",
      "properties": {
        "name": "du Mourre la Mine",
        "GLIMS_ID": "G006210E44747N",
        "massif": "Ecrins",
        "year": 2003
      },
      "geometry": {
        "type": "Point",
        "coordinates": [
          6.2103,
          44.747
        ]
      }
    },
    {
      "type": "Feature",
      "properties": {
        "name": "de Crupillouse",
        "GLIMS_ID": "G006231E44772N",
        "massif": "Ecrins",
        "year": 2003
      },
      "geometry": {
        "type": "Point",
        "coordinates": [
          6.23136,
          44.7718
        ]
      }
    },
    {
      "type": "Feature",
      "properties": {
        "name": "Plat",
        "GLIMS_ID": "G006237E44775N",
        "massif": "Ecrins",
        "year": 2003
      },
      "geometry": {
        "type": "Point",
        "coordinates": [
          6.23654,
          44.7749
        ]
      }
    },
    {
      "type": "Feature",
      "properties": {
        "name": "de Parieres",
        "GLIMS_ID": "G006242E44782N",
        "massif": "Ecrins",
        "year": 2003
      },
      "geometry": {
        "type": "Point",
        "coordinates": [
          6.24213,
          44.7824
        ]
      }
    },
    {
      "type": "Feature",
      "properties": {
        "name": "de Mandare 1",
        "GLIMS_ID": "G006398E44801N",
        "massif": "Ecrins",
        "year": 2003
      },
      "geometry": {
        "type": "Point",
        "coordinates": [
          6.39772,
          44.8008
        ]
      }
    },
    {
      "type": "Feature",
      "properties": {
        "name": "de l'Aigliere 1",
        "GLIMS_ID": "G006404E44803N",
        "massif": "Ecrins",
        "year": 2003
      },
      "geometry": {
        "type": "Point",
        "coordinates": [
          6.4039,
          44.803
        ]
      }
    },
    {
      "type": "Feature",
      "properties": {
        "name": "de Vallonpierre",
        "GLIMS_ID": "G006301E44788N",
        "massif": "Ecrins",
        "year": 2003
      },
      "geometry": {
        "type": "Point",
        "coordinates": [
          6.30076,
          44.7882
        ]
      }
    },
    {
      "type": "Feature",
      "properties": {
        "name": "de la Veyrardonne",
        "GLIMS_ID": "G006312E44785N",
        "massif": "Ecrins",
        "year": 2003
      },
      "geometry": {
        "type": "Point",
        "coordinates": [
          6.31249,
          44.7854
        ]
      }
    },
    {
      "type": "Feature",
      "properties": {
        "name": "du Sirac",
        "GLIMS_ID": "G006316E44796N",
        "massif": "Ecrins",
        "year": 2003
      },
      "geometry": {
        "type": "Point",
        "coordinates": [
          6.31636,
          44.7963
        ]
      }
    },
    {
      "type": "Feature",
      "properties": {
        "name": "de Chanteloube",
        "GLIMS_ID": "G006347E44799N",
        "massif": "Ecrins",
        "year": 2003
      },
      "geometry": {
        "type": "Point",
        "coordinates": [
          6.34678,
          44.7987
        ]
      }
    },
    {
      "type": "Feature",
      "properties": {
        "name": "de Chabourneou",
        "GLIMS_ID": "G006331E44803N",
        "massif": "Ecrins",
        "year": 2003
      },
      "geometry": {
        "type": "Point",
        "coordinates": [
          6.33144,
          44.803
        ]
      }
    },